{
  "zones": {
    "E01000001": {
      "code": "E01000001",
      "name": "City of London 001A",
      "population": 7500,
      "workingPopulation": 5000,
      "centroid": { "lat": 51.5155, "lon": -0.0922 }
    },
    "E01000002": {
      "code": "E01000002",
      "name": "City of London 001B",
      "population": 5200,
      "workingPopulation": 3800,
      "centroid": { "lat": 51.5130, "lon": -0.0890 }
    },
    "E01000003": {
      "code": "E01000003",
      "name": "Barking 001A",
      "population": 8200,
      "workingPopulation": 4100,
      "centroid": { "lat": 51.5397, "lon": 0.0808 }
    },
    "E01000004": {
      "code": "E01000004",
      "name": "Tower Hamlets 001A",
      "population": 9800,
      "workingPopulation": 6200,
      "centroid": { "lat": 51.5150, "lon": -0.0340 }
    },
    "E01000005": {
      "code": "E01000005",
      "name": "Westminster 001A",
      "population": 6300,
      "workingPopulation": 4800,
      "centroid": { "lat": 51.4975, "lon": -0.1357 }
    },
    "E01000006": {
      "code": "E01000006",
      "name": "Camden 001A",
      "population": 7100,
      "workingPopulation": 4500,
      "centroid": { "lat": 51.5390, "lon": -0.1426 }
    },
    "E01000007": {
      "code": "E01000007",
      "name": "Islington 001A",
      "population": 8900,
      "workingPopulation": 5600,
      "centroid": { "lat": 51.5465, "lon": -0.1058 }
    },
    "E01000008": {
      "code": "E01000008",
      "name": "Southwark 001A",
      "population": 7600,
      "workingPopulation": 4900,
      "centroid": { "lat": 51.5045, "lon": -0.0865 }
    },
    "E01033100": {
      "code": "E01033100",
      "name": "Manchester 001A",
      "population": 9200,
      "workingPopulation": 5800,
      "centroid": { "lat": 53.4808, "lon": -2.2426 }
    },
    "E01033101": {
      "code": "E01033101",
      "name": "Manchester 001B",
      "population": 8700,
      "workingPopulation": 5200,
      "centroid": { "lat": 53.4750, "lon": -2.2500 }
    },
    "E01033200": {
      "code": "E01033200",
      "name": "Birmingham 001A",
      "population": 10500,
      "workingPopulation": 6100,
      "centroid": { "lat": 52.4862, "lon": -1.8904 }
    },
    "E01033201": {
      "code": "E01033201",
      "name": "Birmingham 001B",
      "population": 9400,
      "workingPopulation": 5500,
      "centroid": { "lat": 52.4780, "lon": -1.8980 }
    },
    "E01033300": {
      "code": "E01033300",
      "name": "Leeds 001A",
      "population": 8800,
      "workingPopulation": 5400,
      "centroid": { "lat": 53.8008, "lon": -1.5491 }
    },
    "E01033400": {
      "code": "E01033400",
      "name": "Bristol 001A",
      "population": 7900,
      "workingPopulation": 5100,
      "centroid": { "lat": 51.4545, "lon": -2.5879 }
    },
    "E01033500": {
      "code": "E01033500",
      "name": "Edinburgh region",
      "population": 8100,
      "workingPopulation": 5300,
      "centroid": { "lat": 55.9533, "lon": -3.1883 }
    },
    "E01033600": {
      "code": "E01033600",
      "name": "Glasgow region",
      "population": 9600,
      "workingPopulation": 5700,
      "centroid": { "lat": 55.8642, "lon": -4.2518 }
    }
  },
  "odFlows": [
    { "originCode": "E01000003", "destinationCode": "E01000001", "count": 150 },
    { "originCode": "E01000004", "destinationCode": "E01000001", "count": 320 },
    { "originCode": "E01000005", "destinationCode": "E01000001", "count": 280 },
    { "originCode": "E01000006", "destinationCode": "E01000001", "count": 200 },
    { "originCode": "E01000007", "destinationCode": "E01000001", "count": 260 },
    { "originCode": "E01000008", "destinationCode": "E01000001", "count": 180 },
    { "originCode": "E01000006", "destinationCode": "E01000005", "count": 120 },
    { "originCode": "E01000007", "destinationCode": "E01000004", "count": 140 },
    { "originCode": "E01033101", "destinationCode": "E01033100", "count": 400 },
    { "originCode": "E01033201", "destinationCode": "E01033200", "count": 350 },
    { "originCode": "E01033300", "destinationCode": "E01033100", "count": 80 },
    { "originCode": "E01033400", "destinationCode": "E01000001", "count": 60 },
    { "originCode": "E01033600", "destinationCode": "E01033500", "count": 120 }
  ]
}
